{
"type": "FeatureCollection",
"name": "Liquid_Fuel_Terminals",
"crs": { "type": "name", "properties": { "name": "urn:ogc:def:crs:OGC:1.3:CRS84" } },
"features": [
{ "type": "Feature", "properties": { "objectid": 1, "featuretype": "Fuel Terminal", "description": "A facility used for the storage of petroleum products", "class": "Fuel Terminal", "name": "Banksmeadow", "operationalstatus": "Operational", "operator": "Caltex", "owner": "Caltex", "address": "1886 Botany Road", "suburb": "Banksmeadow", "state": "New South Wales", "spatialconfidence": "5", "revised": "2020-08-21T00:00:00Z", "sdedistsbuiltenvLiquid_Fuel_Terminals_2022fid": "1" }, "geometry": { "type": "Point", "coordinates": [ 151.217201233000083, -33.963344573125312 ] } },
{ "type": "Feature", "properties": { "objectid": 2, "featuretype": "Fuel Terminal", "description": "A facility used for the storage of petroleum products", "class": "Fuel Terminal", "name": "Botany Site B", "operationalstatus": "Operational", "operator": "Vopak", "owner": "Vopak", "address": "19-25 Friendship Road", "suburb": "Port Botany", "state": "New South Wales", "spatialconfidence": "5", "revised": "2012-06-11T00:00:00Z", "sdedistsbuiltenvLiquid_Fuel_Terminals_2022fid": "3" }, "geometry": { "type": "Point", "coordinates": [ 151.212219238000102, -33.979564666125128 ] } },
{ "type": "Feature", "properties": { "objectid": 3, "featuretype": "Fuel Terminal", "description": "A facility used for the storage of petroleum products", "class": "Fuel Terminal", "name": "Botany", "operationalstatus": "Decommissioned", "operator": "Mobil", "owner": "Mobil", "address": "Coal Pier Road", "suburb": "Banksmeadow", "state": "New South Wales", "spatialconfidence": "5", "revised": "2015-10-01T00:00:00Z", "sdedistsbuiltenvLiquid_Fuel_Terminals_2022fid": "4" }, "geometry": { "type": "Point", "coordinates": [ 151.214523315000065, -33.954017638125435 ] } },
{ "type": "Feature", "properties": { "objectid": 4, "featuretype": "Fuel Terminal", "description": "A facility used for the storage of petroleum products", "class": "Fuel Terminal", "name": "Altona", "operationalstatus": "Operational", "operator": "Stolthaven Australasia Pty Ltd", "owner": "Stolthaven Australasia Pty Ltd", "address": "401-435 Kororoit Creek Road ", "suburb": "Altona", "state": "Victoria", "spatialconfidence": "5", "revised": "2012-06-11T00:00:00Z", "sdedistsbuiltenvLiquid_Fuel_Terminals_2022fid": "5" }, "geometry": { "type": "Point", "coordinates": [ 144.824981689000083, -37.849864959085551 ] } },
{ "type": "Feature", "properties": { "objectid": 5, "featuretype": "Fuel Terminal", "description": "A facility used for the storage of petroleum products", "class": "Fuel Terminal", "name": "Silverwater", "operationalstatus": "Operational", "operator": "Mobil", "owner": "Caltex / Mobil", "address": "4 Newington Road", "suburb": "Silverwater", "state": "New South Wales", "spatialconfidence": "5", "revised": "2012-06-11T00:00:00Z", "sdedistsbuiltenvLiquid_Fuel_Terminals_2022fid": "7" }, "geometry": { "type": "Point", "coordinates": [ 151.051788330000022, -33.830009459126934 ] } },
{ "type": "Feature", "properties": { "objectid": 6, "featuretype": "Fuel Terminal", "description": "A facility used for the storage of petroleum products", "class": "Fuel Terminal", "name": "Newcastle", "operationalstatus": "Operational", "operator": "BP", "owner": "BP", "address": "120 Elizabeth Street", "suburb": "Carrington", "state": "New South Wales", "spatialconfidence": "5", "revised": "2020-08-21T00:00:00Z", "sdedistsbuiltenvLiquid_Fuel_Terminals_2022fid": "8" }, "geometry": { "type": "Point", "coordinates": [ 151.761459351000099, -32.906150817138929 ] } },
{ "type": "Feature", "properties": { "objectid": 7, "featuretype": "Fuel Terminal", "description": "A facility used for the storage of petroleum products", "class": "Fuel Terminal", "name": "Newcastle", "operationalstatus": "Operational", "operator": "Caltex", "owner": "Caltex", "address": "42 The Avenue", "suburb": "Wickham", "state": "New South Wales", "spatialconfidence": "5", "revised": "2020-08-21T00:00:00Z", "sdedistsbuiltenvLiquid_Fuel_Terminals_2022fid": "9" }, "geometry": { "type": "Point", "coordinates": [ 151.756744385000047, -32.915294646138804 ] } },
{ "type": "Feature", "properties": { "objectid": 8, "featuretype": "Fuel Terminal", "description": "A facility used for the storage of petroleum products", "class": "Fuel Terminal", "name": "Newcastle", "operationalstatus": "Decommissioned", "operator": "Shell", "owner": "Shell", "address": "5 Chatham Road", "suburb": "Hamilton North", "state": "New South Wales", "spatialconfidence": "5", "revised": "2012-06-11T00:00:00Z", "sdedistsbuiltenvLiquid_Fuel_Terminals_2022fid": "10" }, "geometry": { "type": "Point", "coordinates": [ 151.740585327000076, -32.91620254413882 ] } },
{ "type": "Feature", "properties": { "objectid": 9, "featuretype": "Fuel Terminal", "description": "A facility used for the storage of petroleum products", "class": "Fuel Terminal", "name": "Port Kembla", "operationalstatus": "Operational", "operator": "Park", "owner": "Park", "address": "5 Flinders Street", "suburb": "Port Kembla", "state": "New South Wales", "spatialconfidence": "5", "revised": "2020-08-21T00:00:00Z", "sdedistsbuiltenvLiquid_Fuel_Terminals_2022fid": "11" }, "geometry": { "type": "Point", "coordinates": [ 150.893913269000109, -34.46924591011922 ] } },
{ "type": "Feature", "properties": { "objectid": 10, "featuretype": "Fuel Terminal", "description": "A facility used for the storage of petroleum products", "class": "Fuel Terminal", "name": "Darwin", "operationalstatus": "Operational", "operator": "Vopak", "owner": "Vopak", "address": "780 Berrimah Road", "suburb": "East Arm", "state": "Northern Territory", "spatialconfidence": "5", "revised": "2012-06-11T00:00:00Z", "sdedistsbuiltenvLiquid_Fuel_Terminals_2022fid": "12" }, "geometry": { "type": "Point", "coordinates": [ 130.898300171000074, -12.478813647601376 ] } },
{ "type": "Feature", "properties": { "objectid": 11, "featuretype": "Fuel Terminal", "description": "A facility used for the storage of petroleum products", "class": "Fuel Terminal", "name": "Gove", "operationalstatus": "Operational", "operator": "Rio Tinto / Alcan", "owner": "Rio Tinto", "address": "Melville Bay Road", "suburb": "Nhulunbuy", "state": "Northern Territory", "spatialconfidence": "3", "revised": "2020-08-21T00:00:00Z", "sdedistsbuiltenvLiquid_Fuel_Terminals_2022fid": "13" }, "geometry": { "type": "Point", "coordinates": [ 136.679931641000053, -12.1975173946098 ] } },
{ "type": "Feature", "properties": { "objectid": 12, "featuretype": "Fuel Terminal", "description": "A facility used for the storage of petroleum products", "class": "Fuel Terminal", "name": "Pinkenba", "operationalstatus": "Operational", "operator": "Shell", "owner": "Shell", "address": "385 Eagle Farm Road", "suburb": "Pinkenba", "state": "Queensland", "spatialconfidence": "5", "revised": "2012-06-11T00:00:00Z", "sdedistsbuiltenvLiquid_Fuel_Terminals_2022fid": "14" }, "geometry": { "type": "Point", "coordinates": [ 153.126998901000093, -27.420616149228046 ] } },
{ "type": "Feature", "properties": { "objectid": 13, "featuretype": "Fuel Terminal", "description": "A facility used for the storage of petroleum products", "class": "Fuel Terminal", "name": "Whinstanes", "operationalstatus": "Operational", "operator": "BP", "owner": "BP", "address": "701 Kingsford Smith Drive", "suburb": "Eagle Farm", "state": "Queensland", "spatialconfidence": "5", "revised": "2020-08-21T00:00:00Z", "sdedistsbuiltenvLiquid_Fuel_Terminals_2022fid": "15" }, "geometry": { "type": "Point", "coordinates": [ 153.082542419000106, -27.434980391227786 ] } },
{ "type": "Feature", "properties": { "objectid": 14, "featuretype": "Fuel Terminal", "description": "A facility used for the storage of petroleum products", "class": "Fuel Terminal", "name": "Eagle Farm", "operationalstatus": "Operational", "operator": "Neumann", "owner": "Neumann", "address": "645 Kingsford Smith Drive", "suburb": "Eagle Farm", "state": "Queensland", "spatialconfidence": "5", "revised": "2012-06-11T00:00:00Z", "sdedistsbuiltenvLiquid_Fuel_Terminals_2022fid": "16" }, "geometry": { "type": "Point", "coordinates": [ 153.078125000000114, -27.43584632822779 ] } },
{ "type": "Feature", "properties": { "objectid": 15, "featuretype": "Fuel Terminal", "description": "A facility used for the storage of petroleum products", "class": "Fuel Terminal", "name": "Bundaberg", "operationalstatus": "Decommissioned", "operator": "Stolthaven Australasia Pty Ltd", "owner": "Stolthaven Australasia Pty Ltd", "address": "Wharf Drive", "suburb": "Burnett Heads", "state": "Queensland", "spatialconfidence": "5", "revised": "2012-06-11T00:00:00Z", "sdedistsbuiltenvLiquid_Fuel_Terminals_2022fid": "17" }, "geometry": { "type": "Point", "coordinates": [ 152.383651733000079, -24.769131659281534 ] } },
{ "type": "Feature", "properties": { "objectid": 16, "featuretype": "Fuel Terminal", "description": "A facility used for the storage of petroleum products", "class": "Fuel Terminal", "name": "Cairns", "operationalstatus": "Operational", "operator": "Caltex", "owner": "Caltex", "address": "60 Draper Street", "suburb": "Portsmith", "state": "Queensland", "spatialconfidence": "5", "revised": "2020-08-21T00:00:00Z", "sdedistsbuiltenvLiquid_Fuel_Terminals_2022fid": "18" }, "geometry": { "type": "Point", "coordinates": [ 145.776107788000104, -16.934139251473582 ] } },
{ "type": "Feature", "properties": { "objectid": 17, "featuretype": "Fuel Terminal", "description": "A facility used for the storage of petroleum products", "class": "Fuel Terminal", "name": "Cairns", "operationalstatus": "Operational", "operator": "BP", "owner": "BP", "address": "11-33 Kenny Street", "suburb": "Portsmith", "state": "Queensland", "spatialconfidence": "5", "revised": "2020-08-21T00:00:00Z", "sdedistsbuiltenvLiquid_Fuel_Terminals_2022fid": "19" }, "geometry": { "type": "Point", "coordinates": [ 145.775970459000064, -16.932540893473604 ] } },
{ "type": "Feature", "properties": { "objectid": 18, "featuretype": "Fuel Terminal", "description": "A facility used for the storage of petroleum products", "class": "Fuel Terminal", "name": "Cairns", "operationalstatus": "Operational", "operator": "Shell", "owner": "Shell", "address": "52-56 Kenny Street", "suburb": "Portsmith", "state": "Queensland", "spatialconfidence": "5", "revised": "2012-06-11T00:00:00Z", "sdedistsbuiltenvLiquid_Fuel_Terminals_2022fid": "20" }, "geometry": { "type": "Point", "coordinates": [ 145.77393341100003, -16.930944442473638 ] } },
{ "type": "Feature", "properties": { "objectid": 19, "featuretype": "Fuel Terminal", "description": "A facility used for the storage of petroleum products", "class": "Fuel Terminal", "name": "Gladstone", "operationalstatus": "Operational", "operator": "Caltex", "owner": "Caltex / Mobil", "address": "39 Flinders Parade", "suburb": "Gladstone", "state": "Queensland", "spatialconfidence": "4", "revised": "2012-06-11T00:00:00Z", "sdedistsbuiltenvLiquid_Fuel_Terminals_2022fid": "21" }, "geometry": { "type": "Point", "coordinates": [ 151.256332397000051, -23.835267066301853 ] } },
{ "type": "Feature", "properties": { "objectid": 20, "featuretype": "Fuel Terminal", "description": "A facility used for the storage of petroleum products", "class": "Fuel Terminal", "name": "Gladstone", "operationalstatus": "Operational", "operator": "BP", "owner": "BP / Shell", "address": "12 McLintock Street", "suburb": "Gladstone", "state": "Queensland", "spatialconfidence": "5", "revised": "2012-06-11T00:00:00Z", "sdedistsbuiltenvLiquid_Fuel_Terminals_2022fid": "22" }, "geometry": { "type": "Point", "coordinates": [ 151.257690430000025, -23.837745666301824 ] } },
{ "type": "Feature", "properties": { "objectid": 21, "featuretype": "Fuel Terminal", "description": "A facility used for the storage of petroleum products", "class": "Fuel Terminal", "name": "Mackay", "operationalstatus": "Operational", "operator": "BP", "owner": "BP", "address": "Graeme Heggie Street", "suburb": "Mackay", "state": "Queensland", "spatialconfidence": "5", "revised": "2012-06-11T00:00:00Z", "sdedistsbuiltenvLiquid_Fuel_Terminals_2022fid": "23" }, "geometry": { "type": "Point", "coordinates": [ 149.219635010000047, -21.1120529163653 ] } },
{ "type": "Feature", "properties": { "objectid": 22, "featuretype": "Fuel Terminal", "description": "A facility used for the storage of petroleum products", "class": "Fuel Terminal", "name": "Mackay", "operationalstatus": "Operational", "operator": "Shell", "owner": "Shell", "address": "Hamilton Drive", "suburb": "Mackay", "state": "Queensland", "spatialconfidence": "5", "revised": "2012-06-11T00:00:00Z", "sdedistsbuiltenvLiquid_Fuel_Terminals_2022fid": "24" }, "geometry": { "type": "Point", "coordinates": [ 149.220672607000097, -21.111032485365293 ] } },
{ "type": "Feature", "properties": { "objectid": 23, "featuretype": "Fuel Terminal", "description": "A facility used for the storage of petroleum products", "class": "Fuel Terminal", "name": "Mackay", "operationalstatus": "Operational", "operator": "Caltex", "owner": "Caltex", "address": "Harbour Road", "suburb": "Mackay", "state": "Queensland", "spatialconfidence": "5", "revised": "2020-08-21T00:00:00Z", "sdedistsbuiltenvLiquid_Fuel_Terminals_2022fid": "25" }, "geometry": { "type": "Point", "coordinates": [ 149.220329285000048, -21.109773635365332 ] } },
{ "type": "Feature", "properties": { "objectid": 24, "featuretype": "Fuel Terminal", "description": "A facility used for the storage of petroleum products", "class": "Fuel Terminal", "name": "Port Alma", "operationalstatus": "Operational", "operator": "Stolthaven Australasia Pty Ltd", "owner": "Stolthaven Australasia Pty Ltd", "address": "Port Alma Road", "suburb": "Port Alma", "state": "Queensland", "spatialconfidence": "5", "revised": "2012-06-11T00:00:00Z", "sdedistsbuiltenvLiquid_Fuel_Terminals_2022fid": "26" }, "geometry": { "type": "Point", "coordinates": [ 150.859245300000111, -23.587203978307397 ] } },
{ "type": "Feature", "properties": { "objectid": 25, "featuretype": "Fuel Terminal", "description": "A facility used for the storage of petroleum products", "class": "Fuel Terminal", "name": "Townsville", "operationalstatus": "Operational", "operator": "BP", "owner": "BP", "address": "94 Hubert Street", "suburb": "South Townsville", "state": "Queensland", "spatialconfidence": "5", "revised": "2020-08-21T00:00:00Z", "sdedistsbuiltenvLiquid_Fuel_Terminals_2022fid": "27" }, "geometry": { "type": "Point", "coordinates": [ 146.831703186000027, -19.257339477411815 ] } },
{ "type": "Feature", "properties": { "objectid": 26, "featuretype": "Fuel Terminal", "description": "A facility used for the storage of petroleum products", "class": "Fuel Terminal", "name": "Townsville", "operationalstatus": "Operational", "operator": "Shell", "owner": "Caltex / Shell", "address": "Hubert Street", "suburb": "South Townsville", "state": "Queensland", "spatialconfidence": "5", "revised": "2012-06-11T00:00:00Z", "sdedistsbuiltenvLiquid_Fuel_Terminals_2022fid": "28" }, "geometry": { "type": "Point", "coordinates": [ 146.834197998000036, -19.255369185411855 ] } },
{ "type": "Feature", "properties": { "objectid": 27, "featuretype": "Fuel Terminal", "description": "A facility used for the storage of petroleum products", "class": "Fuel Terminal", "name": "Birkenhead", "operationalstatus": "Decommissioned", "operator": "Caltex", "owner": "Caltex", "address": "2 Elder Road", "suburb": "Birkenhead", "state": "South Australia", "spatialconfidence": "4", "revised": "2020-08-21T00:00:00Z", "sdedistsbuiltenvLiquid_Fuel_Terminals_2022fid": "29" }, "geometry": { "type": "Point", "coordinates": [ 138.506668091000051, -34.823734282115105 ] } },
{ "type": "Feature", "properties": { "objectid": 28, "featuretype": "Fuel Terminal", "description": "A facility used for the storage of petroleum products", "class": "Fuel Terminal", "name": "Birkenhead", "operationalstatus": "Operational", "operator": "Mobil", "owner": "Mobil", "address": "198-200 Victoria Road", "suburb": "Largs Bay", "state": "South Australia", "spatialconfidence": "5", "revised": "2020-08-21T00:00:00Z", "sdedistsbuiltenvLiquid_Fuel_Terminals_2022fid": "30" }, "geometry": { "type": "Point", "coordinates": [ 138.501861572000053, -34.827196120115033 ] } },
{ "type": "Feature", "properties": { "objectid": 29, "featuretype": "Fuel Terminal", "description": "A facility used for the storage of petroleum products", "class": "Fuel Terminal", "name": "Largs North", "operationalstatus": "Operational", "operator": "BP", "owner": "BP", "address": "3 Willochra Street", "suburb": "Largs North", "state": "South Australia", "spatialconfidence": "5", "revised": "2012-06-11T00:00:00Z", "sdedistsbuiltenvLiquid_Fuel_Terminals_2022fid": "31" }, "geometry": { "type": "Point", "coordinates": [ 138.504661560000045, -34.81930541911516 ] } },
{ "type": "Feature", "properties": { "objectid": 30, "featuretype": "Fuel Terminal", "description": "A facility used for the storage of petroleum products", "class": "Fuel Terminal", "name": "Port Lincoln", "operationalstatus": "Operational", "operator": "Caltex", "owner": "Caltex", "address": "51 Verran Terrace", "suburb": "Port Lincoln", "state": "South Australia", "spatialconfidence": "5", "revised": "2012-06-11T00:00:00Z", "sdedistsbuiltenvLiquid_Fuel_Terminals_2022fid": "32" }, "geometry": { "type": "Point", "coordinates": [ 135.856735229000037, -34.733470916116154 ] } },
{ "type": "Feature", "properties": { "objectid": 31, "featuretype": "Fuel Terminal", "description": "A facility used for the storage of petroleum products", "class": "Fuel Terminal", "name": "Port Lincoln", "operationalstatus": "Operational", "operator": "Shell", "owner": "Shell", "address": "21 London Street", "suburb": "Port Lincoln", "state": "South Australia", "spatialconfidence": "5", "revised": "2012-06-11T00:00:00Z", "sdedistsbuiltenvLiquid_Fuel_Terminals_2022fid": "33" }, "geometry": { "type": "Point", "coordinates": [ 135.86941528300008, -34.723876952116221 ] } },
{ "type": "Feature", "properties": { "objectid": 32, "featuretype": "Fuel Terminal", "description": "A facility used for the storage of petroleum products", "class": "Fuel Terminal", "name": "Hobart", "operationalstatus": "Operational", "operator": "BP", "owner": "BP", "address": "22 Selfs Point Road", "suburb": "New Town", "state": "Tasmania", "spatialconfidence": "5", "revised": "2012-06-11T00:00:00Z", "sdedistsbuiltenvLiquid_Fuel_Terminals_2022fid": "34" }, "geometry": { "type": "Point", "coordinates": [ 147.324920654000039, -42.845600127059249 ] } },
{ "type": "Feature", "properties": { "objectid": 33, "featuretype": "Fuel Terminal", "description": "A facility used for the storage of petroleum products", "class": "Fuel Terminal", "name": "Hobart", "operationalstatus": "Operational", "operator": "Caltex", "owner": "Caltex", "address": "20 Gas Road", "suburb": "New Town", "state": "Tasmania", "spatialconfidence": "5", "revised": "2012-06-11T00:00:00Z", "sdedistsbuiltenvLiquid_Fuel_Terminals_2022fid": "35" }, "geometry": { "type": "Point", "coordinates": [ 147.326797485000043, -42.846717833059252 ] } },
{ "type": "Feature", "properties": { "objectid": 34, "featuretype": "Fuel Terminal", "description": "A facility used for the storage of petroleum products", "class": "Fuel Terminal", "name": "Burnie", "operationalstatus": "Operational", "operator": "BP", "owner": "BP", "address": "4 River Road", "suburb": "Wivenhoe", "state": "Tasmania", "spatialconfidence": "5", "revised": "2012-06-11T00:00:00Z", "sdedistsbuiltenvLiquid_Fuel_Terminals_2022fid": "36" }, "geometry": { "type": "Point", "coordinates": [ 145.924026489000084, -41.070816039065363 ] } },
{ "type": "Feature", "properties": { "objectid": 35, "featuretype": "Fuel Terminal", "description": "A facility used for the storage of petroleum products", "class": "Fuel Terminal", "name": "Devonport", "operationalstatus": "Operational", "operator": "Shell", "owner": "Shell", "address": "9 Devonport Road", "suburb": "Devonport", "state": "Tasmania", "spatialconfidence": "5", "revised": "2012-06-11T00:00:00Z", "sdedistsbuiltenvLiquid_Fuel_Terminals_2022fid": "37" }, "geometry": { "type": "Point", "coordinates": [ 146.364669800000115, -41.194915770064824 ] } },
{ "type": "Feature", "properties": { "objectid": 36, "featuretype": "Fuel Terminal", "description": "A facility used for the storage of petroleum products", "class": "Fuel Terminal", "name": "Newport", "operationalstatus": "Operational", "operator": "Shell", "owner": "Shell", "address": "Burleigh Street", "suburb": "Newport", "state": "Victoria", "spatialconfidence": "3", "revised": "2012-06-11T00:00:00Z", "sdedistsbuiltenvLiquid_Fuel_Terminals_2022fid": "38" }, "geometry": { "type": "Point", "coordinates": [ 144.886535645000095, -37.837383269085684 ] } },
{ "type": "Feature", "properties": { "objectid": 37, "featuretype": "Fuel Terminal", "description": "A facility used for the storage of petroleum products", "class": "Fuel Terminal", "name": "Yarraville", "operationalstatus": "Operational", "operator": "Mobil", "owner": "Mobil", "address": "294 Hyde Street", "suburb": "Yarraville", "state": "Victoria", "spatialconfidence": "5", "revised": "2012-06-11T00:00:00Z", "sdedistsbuiltenvLiquid_Fuel_Terminals_2022fid": "39" }, "geometry": { "type": "Point", "coordinates": [ 144.898269653000057, -37.82378387408577 ] } },
{ "type": "Feature", "properties": { "objectid": 38, "featuretype": "Fuel Terminal", "description": "A facility used for the storage of petroleum products", "class": "Fuel Terminal", "name": "Coode Island", "operationalstatus": "Operational", "operator": "Terminals Pty Ltd", "owner": "Terminals Pty Ltd", "address": "70-78 Mackenzie Road", "suburb": "West Melbourne", "state": "Victoria", "spatialconfidence": "5", "revised": "2012-06-11T00:00:00Z", "sdedistsbuiltenvLiquid_Fuel_Terminals_2022fid": "40" }, "geometry": { "type": "Point", "coordinates": [ 144.907409668000014, -37.815338134085842 ] } },
{ "type": "Feature", "properties": { "objectid": 39, "featuretype": "Fuel Terminal", "description": "A facility used for the storage of petroleum products", "class": "Fuel Terminal", "name": "Fremantle", "operationalstatus": "Decommissioned", "operator": "Shell", "owner": "Caltex / Shell", "address": "22 Bracks Street", "suburb": "North Fremantle", "state": "Western Australia", "spatialconfidence": "5", "revised": "2020-08-21T00:00:00Z", "sdedistsbuiltenvLiquid_Fuel_Terminals_2022fid": "41" }, "geometry": { "type": "Point", "coordinates": [ 115.748428345000107, -32.033454894151106 ] } },
{ "type": "Feature", "properties": { "objectid": 40, "featuretype": "Fuel Terminal", "description": "A facility used for the storage of petroleum products", "class": "Fuel Terminal", "name": "Albany", "operationalstatus": "Operational", "operator": "Caltex", "owner": "Caltex", "address": "10 Brunswick Road", "suburb": "Albany", "state": "Western Australia", "spatialconfidence": "5", "revised": "2012-06-11T00:00:00Z", "sdedistsbuiltenvLiquid_Fuel_Terminals_2022fid": "42" }, "geometry": { "type": "Point", "coordinates": [ 117.907527924000078, -35.03593444711273 ] } },
{ "type": "Feature", "properties": { "objectid": 41, "featuretype": "Fuel Terminal", "description": "A facility used for the storage of petroleum products", "class": "Fuel Terminal", "name": "Kewdale", "operationalstatus": "Operational", "operator": "BP", "owner": "BP", "address": "459 Abernethy Road", "suburb": "Kewdale", "state": "Western Australia", "spatialconfidence": "5", "revised": "2020-08-12T00:00:00Z", "sdedistsbuiltenvLiquid_Fuel_Terminals_2022fid": "43" }, "geometry": { "type": "Point", "coordinates": [ 115.972042084000023, -31.9811344141518 ] } },
{ "type": "Feature", "properties": { "objectid": 42, "featuretype": "Fuel Terminal", "description": "A facility used for the storage of petroleum products", "class": "Fuel Terminal", "name": "North Fremantle", "operationalstatus": "Operational", "operator": "BP", "owner": "BP", "address": "Swan Street", "suburb": "North Fremantle", "state": "Western Australia", "spatialconfidence": "5", "revised": "2020-08-21T00:00:00Z", "sdedistsbuiltenvLiquid_Fuel_Terminals_2022fid": "44" }, "geometry": { "type": "Point", "coordinates": [ 115.747901917000036, -32.038585662150993 ] } },
{ "type": "Feature", "properties": { "objectid": 43, "featuretype": "Fuel Terminal", "description": "A facility used for the storage of petroleum products", "class": "Fuel Terminal", "name": "Dampier", "operationalstatus": "Operational", "operator": "BP", "owner": "Rio Tinto", "address": "Parker Point", "suburb": "Burrup", "state": "Western Australia", "spatialconfidence": "5", "revised": "2012-06-11T00:00:00Z", "sdedistsbuiltenvLiquid_Fuel_Terminals_2022fid": "45" }, "geometry": { "type": "Point", "coordinates": [ 116.724021912000026, -20.645283698376751 ] } },
{ "type": "Feature", "properties": { "objectid": 44, "featuretype": "Fuel Terminal", "description": "A facility used for the storage of petroleum products", "class": "Fuel Terminal", "name": "Esperance", "operationalstatus": "Operational", "operator": "BP", "owner": "BP", "address": "Lease Road", "suburb": "Esperance", "state": "Western Australia", "spatialconfidence": "5", "revised": "2012-06-11T00:00:00Z", "sdedistsbuiltenvLiquid_Fuel_Terminals_2022fid": "46" }, "geometry": { "type": "Point", "coordinates": [ 121.897583008000097, -33.851200103126665 ] } },
{ "type": "Feature", "properties": { "objectid": 45, "featuretype": "Fuel Terminal", "description": "A facility used for the storage of petroleum products", "class": "Fuel Terminal", "name": "Esperance", "operationalstatus": "Operational", "operator": "Shell", "owner": "Shell", "address": "Lease Road", "suburb": "Esperance", "state": "Western Australia", "spatialconfidence": "5", "revised": "2012-06-11T00:00:00Z", "sdedistsbuiltenvLiquid_Fuel_Terminals_2022fid": "47" }, "geometry": { "type": "Point", "coordinates": [ 121.895351410000103, -33.851066588126713 ] } },
{ "type": "Feature", "properties": { "objectid": 46, "featuretype": "Fuel Terminal", "description": "A facility used for the storage of petroleum products", "class": "Fuel Terminal", "name": "Geraldton", "operationalstatus": "Operational", "operator": "BP", "owner": "BP", "address": "Marine Terrace", "suburb": "West End", "state": "Western Australia", "spatialconfidence": "5", "revised": "2012-06-11T00:00:00Z", "sdedistsbuiltenvLiquid_Fuel_Terminals_2022fid": "48" }, "geometry": { "type": "Point", "coordinates": [ 114.595813751000023, -28.779661178203195 ] } },
{ "type": "Feature", "properties": { "objectid": 47, "featuretype": "Fuel Terminal", "description": "A facility used for the storage of petroleum products", "class": "Fuel Terminal", "name": "Geraldton", "operationalstatus": "Operational", "operator": "Shell", "owner": "Shell", "address": "205 Augustus Street", "suburb": "West End", "state": "Western Australia", "spatialconfidence": "4", "revised": "2020-08-12T00:00:00Z", "sdedistsbuiltenvLiquid_Fuel_Terminals_2022fid": "49" }, "geometry": { "type": "Point", "coordinates": [ 114.595989227000018, -28.780792235203187 ] } },
{ "type": "Feature", "properties": { "objectid": 48, "featuretype": "Fuel Terminal", "description": "A facility used for the storage of petroleum products", "class": "Fuel Terminal", "name": "Port Hedland", "operationalstatus": "Operational", "operator": "BP", "owner": "BP", "address": "Wilson Street", "suburb": "Port Hedland", "state": "Western Australia", "spatialconfidence": "4", "revised": "2020-08-21T00:00:00Z", "sdedistsbuiltenvLiquid_Fuel_Terminals_2022fid": "50" }, "geometry": { "type": "Point", "coordinates": [ 118.582229614000084, -20.314069747384991 ] } },
{ "type": "Feature", "properties": { "objectid": 49, "featuretype": "Fuel Terminal", "description": "A facility used for the storage of petroleum products", "class": "Fuel Terminal", "name": "Port Hedland", "operationalstatus": "Operational", "operator": "Caltex", "owner": "Caltex", "address": "Wilson Street", "suburb": "Port Hedland", "state": "Western Australia", "spatialconfidence": "4", "revised": "2020-08-21T00:00:00Z", "sdedistsbuiltenvLiquid_Fuel_Terminals_2022fid": "51" }, "geometry": { "type": "Point", "coordinates": [ 118.580345154000028, -20.314413070384973 ] } },
{ "type": "Feature", "properties": { "objectid": 50, "featuretype": "Fuel Terminal", "description": "A facility used for the storage of petroleum products", "class": "Fuel Terminal", "name": "Kwinana", "operationalstatus": "Operational", "operator": "Coogee Chemicals", "owner": "Coogee Chemicals", "address": "Kwinana Beach Road", "suburb": "Kwinana", "state": "Western Australia", "spatialconfidence": "5", "revised": "2012-06-11T00:00:00Z", "sdedistsbuiltenvLiquid_Fuel_Terminals_2022fid": "53" }, "geometry": { "type": "Point", "coordinates": [ 115.771907806000073, -32.245342254148078 ] } },
{ "type": "Feature", "properties": { "objectid": 51, "featuretype": "Fuel Terminal", "description": "A facility used for the storage of petroleum products", "class": "Fuel Terminal", "name": "Cape Lambert", "operationalstatus": "Decommissioned", "operator": "BP", "owner": "Rio Tinto", "address": "Point Samson", "suburb": "Point Samson", "state": "Western Australia", "spatialconfidence": "5", "revised": "2012-06-11T00:00:00Z", "sdedistsbuiltenvLiquid_Fuel_Terminals_2022fid": "54" }, "geometry": { "type": "Point", "coordinates": [ 117.168907166000054, -20.600611686377871 ] } },
{ "type": "Feature", "properties": { "objectid": 52, "featuretype": "Fuel Terminal", "description": "A facility used for the storage of petroleum products", "class": "Fuel Terminal", "name": "Groote Eylandt", "operationalstatus": "Operational", "operator": "BHP Billiton", "owner": "BHP Billiton", "address": "Yarradelia Road", "suburb": "Alyangula", "state": "Northern Territory", "spatialconfidence": "3", "revised": "2012-06-11T00:00:00Z", "sdedistsbuiltenvLiquid_Fuel_Terminals_2022fid": "55" }, "geometry": { "type": "Point", "coordinates": [ 136.422019958000078, -13.8591566085606 ] } },
{ "type": "Feature", "properties": { "objectid": 53, "featuretype": "Fuel Terminal", "description": "A facility used for the storage of petroleum products", "class": "Fuel Terminal", "name": "Parramatta", "operationalstatus": "Operational", "operator": "Shell", "owner": "Shell", "address": "Durham Road", "suburb": "Rosehill", "state": "New South Wales", "spatialconfidence": "5", "revised": "2012-06-11T00:00:00Z", "sdedistsbuiltenvLiquid_Fuel_Terminals_2022fid": "56" }, "geometry": { "type": "Point", "coordinates": [ 151.038879395000095, -33.82287788312707 ] } },
{ "type": "Feature", "properties": { "objectid": 54, "featuretype": "Fuel Terminal", "description": "A facility used for the storage of petroleum products", "class": "Fuel Terminal", "name": "Broome", "operationalstatus": "Operational", "operator": "BP", "owner": "BP", "address": "297 Port Drive", "suburb": "Minyirr", "state": "Western Australia", "spatialconfidence": "4", "revised": "2012-06-11T00:00:00Z", "sdedistsbuiltenvLiquid_Fuel_Terminals_2022fid": "57" }, "geometry": { "type": "Point", "coordinates": [ 122.20790863000002, -18.003227233444697 ] } },
{ "type": "Feature", "properties": { "objectid": 55, "featuretype": "Fuel Terminal", "description": "A facility used for the storage of petroleum products", "class": "Fuel Terminal", "name": "Broome", "operationalstatus": "Operational", "operator": "Shell", "owner": "Shell", "address": "297 Port Drive", "suburb": "Minyirr", "state": "Western Australia", "spatialconfidence": "4", "revised": "2012-06-11T00:00:00Z", "sdedistsbuiltenvLiquid_Fuel_Terminals_2022fid": "58" }, "geometry": { "type": "Point", "coordinates": [ 122.205898285000103, -18.003623961444678 ] } },
{ "type": "Feature", "properties": { "objectid": 56, "featuretype": "Fuel Terminal", "description": "A facility used for the storage of petroleum products", "class": "Fuel Terminal", "name": "Newport", "operationalstatus": "Operational", "operator": "Caltex", "owner": "Caltex", "address": "Douglas Parade", "suburb": "Spotswood", "state": "Victoria", "spatialconfidence": "4", "revised": "2012-06-11T00:00:00Z", "sdedistsbuiltenvLiquid_Fuel_Terminals_2022fid": "59" }, "geometry": { "type": "Point", "coordinates": [ 144.891533202000119, -37.835215806085678 ] } },
{ "type": "Feature", "properties": { "objectid": 57, "featuretype": "Fuel Terminal", "description": "A facility used for the storage of petroleum products", "class": "Fuel Terminal", "name": "Newport", "operationalstatus": "Operational", "operator": "BP", "owner": "BP", "address": "Douglas Parade", "suburb": "Spotswood", "state": "Victoria", "spatialconfidence": "1", "revised": "2012-06-11T00:00:00Z", "sdedistsbuiltenvLiquid_Fuel_Terminals_2022fid": "60" }, "geometry": { "type": "Point", "coordinates": [ 144.893811664000054, -37.833762710085708 ] } },
{ "type": "Feature", "properties": { "objectid": 58, "featuretype": "Fuel Terminal", "description": "A facility used for the storage of petroleum products", "class": "Fuel Terminal", "name": "McArthur River", "operationalstatus": "Operational", "operator": "McArthur River Mining Pty Ltd", "owner": "Xstrata", "address": null, "suburb": "McArthur", "state": "Northern Territory", "spatialconfidence": "1", "revised": "2012-06-11T00:00:00Z", "sdedistsbuiltenvLiquid_Fuel_Terminals_2022fid": "61" }, "geometry": { "type": "Point", "coordinates": [ 136.388114929000039, -15.629108428509785 ] } },
{ "type": "Feature", "properties": { "objectid": 59, "featuretype": "Fuel Terminal", "description": "A facility used for the storage of petroleum products", "class": "Fuel Terminal", "name": "Bell Bay", "operationalstatus": "Operational", "operator": "Stolthaven Australasia Pty Ltd", "owner": "Stolthaven Australasia Pty Ltd", "address": "23 Norfolk Street", "suburb": "Bell Bay", "state": "Tasmania", "spatialconfidence": "5", "revised": "2012-06-11T00:00:00Z", "sdedistsbuiltenvLiquid_Fuel_Terminals_2022fid": "62" }, "geometry": { "type": "Point", "coordinates": [ 146.857429504000038, -41.133968352065075 ] } },
{ "type": "Feature", "properties": { "objectid": 60, "featuretype": "Fuel Terminal", "description": "A facility used for the storage of petroleum products", "class": "Fuel Terminal", "name": "Adelaide", "operationalstatus": "Operational", "operator": "Terminals Pty Ltd", "owner": "Terminals Pty Ltd", "address": "Veitch Road", "suburb": "Osborne", "state": "South Australia", "spatialconfidence": "5", "revised": "2012-06-11T00:00:00Z", "sdedistsbuiltenvLiquid_Fuel_Terminals_2022fid": "63" }, "geometry": { "type": "Point", "coordinates": [ 138.509521484000061, -34.789733886115464 ] } },
{ "type": "Feature", "properties": { "objectid": 61, "featuretype": "Fuel Terminal", "description": "A facility used for the storage of petroleum products", "class": "Fuel Terminal", "name": "Geelong", "operationalstatus": "Operational", "operator": "Shell", "owner": "Shell", "address": "Corio Refinery", "suburb": "Corio", "state": "Victoria", "spatialconfidence": "3", "revised": "2012-06-11T00:00:00Z", "sdedistsbuiltenvLiquid_Fuel_Terminals_2022fid": "64" }, "geometry": { "type": "Point", "coordinates": [ 144.381057739000084, -38.073696135083793 ] } },
{ "type": "Feature", "properties": { "objectid": 62, "featuretype": "Fuel Terminal", "description": "A facility used for the storage of petroleum products", "class": "Fuel Terminal", "name": "Hastings", "operationalstatus": "Operational", "operator": "United", "owner": "United", "address": "Barclay Crescent", "suburb": "Hastings", "state": "Victoria", "spatialconfidence": "5", "revised": "2020-08-21T00:00:00Z", "sdedistsbuiltenvLiquid_Fuel_Terminals_2022fid": "65" }, "geometry": { "type": "Point", "coordinates": [ 145.196563721000075, -38.291534423082119 ] } },
{ "type": "Feature", "properties": { "objectid": 63, "featuretype": "Fuel Terminal", "description": "A facility used for the storage of petroleum products", "class": "Fuel Terminal", "name": "Somerton", "operationalstatus": "Operational", "operator": null, "owner": "Mobil / BP / Shell", "address": "Cliffords Road", "suburb": "Somerton", "state": "Victoria", "spatialconfidence": "5", "revised": "2012-06-11T00:00:00Z", "sdedistsbuiltenvLiquid_Fuel_Terminals_2022fid": "66" }, "geometry": { "type": "Point", "coordinates": [ 144.938240051000093, -37.634986876087339 ] } },
{ "type": "Feature", "properties": { "objectid": 64, "featuretype": "Fuel Terminal", "description": "A facility used for the storage of petroleum products", "class": "Fuel Terminal", "name": "Wyndham", "operationalstatus": "Operational", "operator": "Cambridge Gulf Ltd", "owner": "Cambridge Gulf Ltd", "address": "Barytes Road", "suburb": "Wyndham", "state": "Western Australia", "spatialconfidence": "5", "revised": "2012-06-11T00:00:00Z", "sdedistsbuiltenvLiquid_Fuel_Terminals_2022fid": "67" }, "geometry": { "type": "Point", "coordinates": [ 128.106185913000104, -15.451162337514846 ] } },
{ "type": "Feature", "properties": { "objectid": 65, "featuretype": "Fuel Terminal", "description": "A facility used for the storage of petroleum products", "class": "Fuel Terminal", "name": "Townsville", "operationalstatus": "Decommissioned", "operator": "Tropic Distributors", "owner": "Tropic Distributors", "address": "56 Archer Street", "suburb": "South Townsville", "state": "Queensland", "spatialconfidence": "3", "revised": "2020-08-21T00:00:00Z", "sdedistsbuiltenvLiquid_Fuel_Terminals_2022fid": "68" }, "geometry": { "type": "Point", "coordinates": [ 146.831329346000075, -19.262208938411693 ] } },
{ "type": "Feature", "properties": { "objectid": 66, "featuretype": "Fuel Terminal", "description": "A facility used for the storage of petroleum products", "class": "Fuel Terminal", "name": "Lytton", "operationalstatus": "Operational", "operator": "Caltex", "owner": "Caltex", "address": "Tanker Street", "suburb": "Lytton", "state": "Queensland", "spatialconfidence": "4", "revised": "2012-06-11T00:00:00Z", "sdedistsbuiltenvLiquid_Fuel_Terminals_2022fid": "69" }, "geometry": { "type": "Point", "coordinates": [ 153.160614014000089, -27.418919562228108 ] } },
{ "type": "Feature", "properties": { "objectid": 67, "featuretype": "Fuel Terminal", "description": "A facility used for the storage of petroleum products", "class": "Fuel Terminal", "name": "Karumba", "operationalstatus": "Decommissioned", "operator": null, "owner": null, "address": "Yappar Street", "suburb": "Karumba", "state": "Queensland", "spatialconfidence": "1", "revised": "2012-06-11T00:00:00Z", "sdedistsbuiltenvLiquid_Fuel_Terminals_2022fid": "70" }, "geometry": { "type": "Point", "coordinates": [ 140.831535339000084, -17.492559432458382 ] } },
{ "type": "Feature", "properties": { "objectid": 68, "featuretype": "Fuel Terminal", "description": "A facility used for the storage of petroleum products", "class": "Fuel Terminal", "name": "Cape Flattery", "operationalstatus": "Operational", "operator": "Cape Flattery Silica Mines Pty Ltd", "owner": "Cape Flattery Silica Mines Pty Ltd", "address": "<Null>", "suburb": "Lizard", "state": "Queensland", "spatialconfidence": "1", "revised": "2012-06-11T00:00:00Z", "sdedistsbuiltenvLiquid_Fuel_Terminals_2022fid": "71" }, "geometry": { "type": "Point", "coordinates": [ 145.311462402000075, -14.955914496528941 ] } },
{ "type": "Feature", "properties": { "objectid": 69, "featuretype": "Fuel Terminal", "description": "A facility used for the storage of petroleum products", "class": "Fuel Terminal", "name": "Horn Island", "operationalstatus": "Operational", "operator": "Far North Queensland Ports Corporation Ltd", "owner": "Far North Queensland Ports Corporation Ltd", "address": "Airport Road", "suburb": "Horn", "state": "Queensland", "spatialconfidence": "2", "revised": "2020-08-21T00:00:00Z", "sdedistsbuiltenvLiquid_Fuel_Terminals_2022fid": "72" }, "geometry": { "type": "Point", "coordinates": [ 142.247985840000069, -10.591704368658577 ] } },
{ "type": "Feature", "properties": { "objectid": 70, "featuretype": "Fuel Terminal", "description": "A facility used for the storage of petroleum products", "class": "Fuel Terminal", "name": "Weipa", "operationalstatus": "Operational", "operator": "BP", "owner": "Rio Tinto", "address": "Kerr Point Drive", "suburb": "Evans Landing", "state": "Queensland", "spatialconfidence": "2", "revised": "2020-08-21T00:00:00Z", "sdedistsbuiltenvLiquid_Fuel_Terminals_2022fid": "73" }, "geometry": { "type": "Point", "coordinates": [ 141.846099854000045, -12.662481307595856 ] } },
{ "type": "Feature", "properties": { "objectid": 71, "featuretype": "Fuel Terminal", "description": "A facility used for the storage of petroleum products", "class": "Fuel Terminal", "name": "Coode Island", "operationalstatus": "Operational", "operator": "Stolthaven Australasia Pty Ltd", "owner": "Stolthaven Australasia Pty Ltd", "address": "42-52 Mackenzie Road\r\n", "suburb": "West Melbourne", "state": "Victoria", "spatialconfidence": "5", "revised": "2012-06-11T00:00:00Z", "sdedistsbuiltenvLiquid_Fuel_Terminals_2022fid": "74" }, "geometry": { "type": "Point", "coordinates": [ 144.907386780000024, -37.813270568085855 ] } },
{ "type": "Feature", "properties": { "objectid": 72, "featuretype": "Fuel Terminal", "description": "A facility used for the storage of petroleum products", "class": "Fuel Terminal", "name": "Geelong", "operationalstatus": "Operational", "operator": "Terminals Pty Ltd", "owner": "Terminals Pty Ltd", "address": "40 Wharf Road", "suburb": "Corio", "state": "Victoria", "spatialconfidence": "5", "revised": "2020-08-21T00:00:00Z", "sdedistsbuiltenvLiquid_Fuel_Terminals_2022fid": "75" }, "geometry": { "type": "Point", "coordinates": [ 144.381416321000074, -38.084674834083685 ] } },
{ "type": "Feature", "properties": { "objectid": 73, "featuretype": "Fuel Terminal", "description": "A facility used for the storage of petroleum products", "class": "Fuel Terminal", "name": "Gore Bay", "operationalstatus": "Operational", "operator": "Shell", "owner": "Shell", "address": "Manns Avenue", "suburb": "Greenwich", "state": "New South Wales", "spatialconfidence": "5", "revised": "2012-06-11T00:00:00Z", "sdedistsbuiltenvLiquid_Fuel_Terminals_2022fid": "76" }, "geometry": { "type": "Point", "coordinates": [ 151.185424805000025, -33.837762832126849 ] } },
{ "type": "Feature", "properties": { "objectid": 74, "featuretype": "Fuel Terminal", "description": "A facility used for the storage of petroleum products", "class": "Fuel Terminal", "name": "Clyde", "operationalstatus": "Operational", "operator": "Shell", "owner": "Shell", "address": "Durham Street", "suburb": "Rosehill", "state": "New South Wales", "spatialconfidence": "5", "revised": "2015-10-01T00:00:00Z", "sdedistsbuiltenvLiquid_Fuel_Terminals_2022fid": "77" }, "geometry": { "type": "Point", "coordinates": [ 151.042129517000035, -33.82690048112697 ] } },
{ "type": "Feature", "properties": { "objectid": 75, "featuretype": "Fuel Terminal", "description": "A facility used for the storage of petroleum products", "class": "Fuel Terminal", "name": "Kurnell", "operationalstatus": "Operational", "operator": "Caltex", "owner": "Caltex", "address": "2 Solander Street", "suburb": "Kurnell", "state": "New South Wales", "spatialconfidence": "5", "revised": "2020-08-21T00:00:00Z", "sdedistsbuiltenvLiquid_Fuel_Terminals_2022fid": "78" }, "geometry": { "type": "Point", "coordinates": [ 151.214439392000031, -34.0207633961246 ] } },
{ "type": "Feature", "properties": { "objectid": 76, "featuretype": "Fuel Terminal", "description": "A facility used for the storage of petroleum products", "class": "Fuel Terminal", "name": "Bulwer Island", "operationalstatus": "Operational", "operator": "BP", "owner": "BP", "address": "270 Tingira Street", "suburb": "Pinkenba", "state": "Queensland", "spatialconfidence": "5", "revised": "2020-08-21T00:00:00Z", "sdedistsbuiltenvLiquid_Fuel_Terminals_2022fid": "79" }, "geometry": { "type": "Point", "coordinates": [ 153.143462980000095, -27.400974852228455 ] } },
{ "type": "Feature", "properties": { "objectid": 77, "featuretype": "Fuel Terminal", "description": "A facility used for the storage of petroleum products", "class": "Fuel Terminal", "name": "Newport", "operationalstatus": "Decommissioned", "operator": "BP", "owner": "BP", "address": "Drake Street", "suburb": "Spotswood", "state": "Victoria", "spatialconfidence": "1", "revised": "2012-06-11T00:00:00Z", "sdedistsbuiltenvLiquid_Fuel_Terminals_2022fid": "60" }, "geometry": { "type": "Point", "coordinates": [ 144.889799893000031, -37.836361081085663 ] } },
{ "type": "Feature", "properties": { "objectid": 78, "featuretype": "Fuel Terminal", "description": "A facility used for the storage of petroleum products", "class": "Fuel Terminal", "name": "Burnie", "operationalstatus": "Operational", "operator": "BP", "owner": "BP", "address": "1 River Road", "suburb": "Wivenhoe", "state": "Tasmania", "spatialconfidence": "5", "revised": "2012-06-11T00:00:00Z", "sdedistsbuiltenvLiquid_Fuel_Terminals_2022fid": "36" }, "geometry": { "type": "Point", "coordinates": [ 145.927024610000103, -41.068617417065397 ] } }
]
}
